[
    {
     "name":"Migrants Community",
     "address":"Barbaza, Antique",
     "coordinates":
        {
            "latitude": 11.2231318,
            "longitude": 122.0541271
        }
    },
    {
        "name":"Pantad Ati",
        "address":"Tobias Fornier, Antique",
        "coordinates":
        {
            "latitude": 10.5165,
            "longitude": 121.9995
        }
    
    },
    {
     "name":"CAARD Partner Communities - Passi",
     "address":"Passi City, Iloilo",
     "coordinates":
        {
            "latitude": 11.1687967,
            "longitude": 122.650351
        }
    },
    {
        "name":"CAARD Partner Communities - Salngan",
        "address":"Salngan, Passi City, Iloilo",
        "coordinates":
           {
               "latitude": 11.1687967,
               "longitude": 122.650351
           }
       },
    {
        "name":"Yolanda Pabahay",
        "address":"Estancia, Iloilo",
        "coordinates":
        {
            "latitude": 11.4619823,
            "longitude": 123.1463992
        }		
    },
    {
        "name":"Kati-Kati Ati",
        "address":"Jordan, Guimaras",
        "coordinates":
        {
            "latitude": 10.580377,
            "longitude": 122.592247
        }
    },
    {
        "name":"Camang-camang Ati Cultural Community",
        "address":"Marikudo, Isabela, Negros Occidental",
        "coordinates":
        {
            "latitude": 10.2043253,
            "longitude": 122.9878393
        }
    },
    {
        "name":"Lanit Ati Village",
        "address":"Jaro, Iloilo City",
        "coordinates":
        {
            "latitude": 10.7503937,
            "longitude": 122.5701037
        }
    },
    {
        "name":"NAMIAS Ati - Barotac Viejo",
        "address":"Barotac Viejo, Iloilo",
        "coordinates":
        {
            "latitude": 11.0625316,
            "longitude": 122.8761309
        }
    },
    {
        "name":"Dacal Ati",
        "address":"San Enrique, Iloilo",
        "coordinates":
        {
            "latitude": 11.1098942,
            "longitude": 122.7294309
        }
    },
    {
        "name":"NAMIAS Ati - Anilao",
        "address":"Anilao, Iloilo",
        "coordinates":
        {
            "latitude": 11.0002604,
            "longitude": 122.740723
        }
    },
    {
        "name":"NAMIAS Ati - Batad",
        "address":"Batad, Iloilo",
        "coordinates":
        {
            "latitude": 11.4169972,
            "longitude": 123.1126559
        }
    },
    {
        "name":"Mt. Tagao Ati",
        "address":"Dumarao, Capiz",
        "coordinates":
        {
            "latitude": 11.2421989,
            "longitude": 122.695547
        }
    },
    {
        "name":"Kabangrusan Ati",
        "address":"Nabas, Aklan",
        "coordinates":
        {
            "latitude": 11.8517124,
            "longitude": 122.026918
        }
    },
    {
        "name":"Malay Ati Tribal Association (MATA)",
        "address":"Malay, Aklan",
        "coordinates":
        {
            "latitude": 11.9003045,
            "longitude": 121.958687
        }
    },
    {
        "name":"Caridad - Hamtic Community",
        "address":"Hamtic, Antique",
        "coordinates":
        {
            "latitude": 10.691799,
            "longitude": 121.989919
        }
    },
    {
        "name":"Poblacion4 - Hamtic Community",
        "address":"Hamtic, Antique",
        "coordinates":
        {
            "latitude": 10.701997,
            "longitude": 121.985804
        }
    }
    
]